{
   "type":"FeatureCollection",
   "features":[
      {
         "type":"Feature",
         "properties":{
            "name":"二林",
            "SiteEngName":"Erlin",
            "AreaName":"中部空品區",
            "County":"彰化縣",
            "Township":null,
            "address":"彰化縣二林鎮江山巷1號",
            "AQI": 10,
            "PM25": 15
         },
         "geometry":{
            "type":"Point",
            "coordinates":[
               120.4096530000,
               23.9251750000
            ]
         }
      },
      {
         "type":"Feature",
         "properties":{
            "name":"三重",
            "SiteEngName":"Sanchong",
            "AreaName":"北部空品區",
            "County":"新北市",
            "Township":null,
            "address":"新北市三重區三和路與重陽路交口"
         },
         "geometry":{
            "type":"Point",
            "coordinates":[
               121.4938060000,
               25.0726110000
            ]
         }
      },
      {
         "type":"Feature",
         "properties":{
            "name":"三義",
            "SiteEngName":"Sanyi",
            "AreaName":"竹苗空品區",
            "County":"苗栗縣",
            "Township":null,
            "address":"苗栗縣三義鄉西湖村上湖61-1號"
         },
         "geometry":{
            "type":"Point",
            "coordinates":[
               120.7588330000,
               24.3829420000
            ]
         }
      },
      {
         "type":"Feature",
         "properties":{
            "name":"土城",
            "SiteEngName":"Tucheng",
            "AreaName":"北部空品區",
            "County":"新北市",
            "Township":null,
            "address":"新北市土城區學府路1段241號"
         },
         "geometry":{
            "type":"Point",
            "coordinates":[
               121.4518610000,
               24.9825280000
            ]
         }
      },
      {
         "type":"Feature",
         "properties":{
            "name":"士林",
            "SiteEngName":"Shilin",
            "AreaName":"北部空品區",
            "County":"臺北市",
            "Township":null,
            "address":"臺北市北投區文林北路155號"
         },
         "geometry":{
            "type":"Point",
            "coordinates":[
               121.5145000000,
               25.1059170000
            ]
         }
      },
      {
         "type":"Feature",
         "properties":{
            "name":"大同",
            "SiteEngName":"Datong",
            "AreaName":"北部空品區",
            "County":"臺北市",
            "Township":null,
            "address":"臺北市大同區重慶北路3段2號"
         },
         "geometry":{
            "type":"Point",
            "coordinates":[
               121.5133110000,
               25.0632000000
            ]
         }
      },
      {
         "type":"Feature",
         "properties":{
            "name":"大里",
            "SiteEngName":"Dali",
            "AreaName":"中部空品區",
            "County":"臺中市",
            "Township":null,
            "address":"臺中市大里區大新街36號"
         },
         "geometry":{
            "type":"Point",
            "coordinates":[
               120.6776890000,
               24.0996110000
            ]
         }
      },
      {
         "type":"Feature",
         "properties":{
            "name":"大園",
            "SiteEngName":"Dayuan",
            "AreaName":"北部空品區",
            "County":"桃園市",
            "Township":null,
            "address":"桃園市大園區中正東路160號"
         },
         "geometry":{
            "type":"Point",
            "coordinates":[
               121.2018110000,
               25.0603440000
            ]
         }
      },
      {
         "type":"Feature",
         "properties":{
            "name":"大寮",
            "SiteEngName":"Daliao",
            "AreaName":"高屏空品區",
            "County":"高雄市",
            "Township":null,
            "address":"高雄市大寮區潮寮路61號"
         },
         "geometry":{
            "type":"Point",
            "coordinates":[
               120.4253110000,
               22.5641360000
            ]
         }
      },
      {
         "type":"Feature",
         "properties":{
            "name":"小港",
            "SiteEngName":"Xiaogang",
            "AreaName":"高屏空品區",
            "County":"高雄市",
            "Township":null,
            "address":"高雄市小港區平和南路185號"
         },
         "geometry":{
            "type":"Point",
            "coordinates":[
               120.3377360000,
               22.5658330000
            ]
         }
      },
      {
         "type":"Feature",
         "properties":{
            "name":"中山",
            "SiteEngName":"Zhongshan",
            "AreaName":"北部空品區",
            "County":"臺北市",
            "Township":null,
            "address":"臺北市中山區林森北路511號"
         },
         "geometry":{
            "type":"Point",
            "coordinates":[
               121.5265280000,
               25.0623610000
            ]
         }
      },
      {
         "type":"Feature",
         "properties":{
            "name":"中壢",
            "SiteEngName":"Zhongli",
            "AreaName":"北部空品區",
            "County":"桃園市",
            "Township":null,
            "address":"桃園市中壢區延平路622號"
         },
         "geometry":{
            "type":"Point",
            "coordinates":[
               121.2216670000,
               24.9532780000
            ]
         }
      },
      {
         "type":"Feature",
         "properties":{
            "name":"仁武",
            "SiteEngName":"Renwu",
            "AreaName":"高屏空品區",
            "County":"高雄市",
            "Township":null,
            "address":"高雄市仁武區永仁街555號"
         },
         "geometry":{
            "type":"Point",
            "coordinates":[
               120.3326310000,
               22.6890560000
            ]
         }
      },
      {
         "type":"Feature",
         "properties":{
            "name":"斗六",
            "SiteEngName":"Douliu",
            "AreaName":"雲嘉南空品區",
            "County":"雲林縣",
            "Township":null,
            "address":"雲林縣斗六市民生路224號"
         },
         "geometry":{
            "type":"Point",
            "coordinates":[
               120.5449940000,
               23.7118530000
            ]
         }
      },
      {
         "type":"Feature",
         "properties":{
            "name":"冬山",
            "SiteEngName":"Dongshan",
            "AreaName":"宜蘭空品區",
            "County":"宜蘭縣",
            "Township":null,
            "address":"宜蘭縣冬山鄉照安路26號"
         },
         "geometry":{
            "type":"Point",
            "coordinates":[
               121.7929280000,
               24.6322030000
            ]
         }
      },
      {
         "type":"Feature",
         "properties":{
            "name":"古亭",
            "SiteEngName":"Guting",
            "AreaName":"北部空品區",
            "County":"臺北市",
            "Township":null,
            "address":"臺北市大安區羅斯福路3段201號"
         },
         "geometry":{
            "type":"Point",
            "coordinates":[
               121.5295560000,
               25.0206080000
            ]
         }
      },
      {
         "type":"Feature",
         "properties":{
            "name":"左營",
            "SiteEngName":"Zuoying",
            "AreaName":"高屏空品區",
            "County":"高雄市",
            "Township":null,
            "address":"高雄市左營區翠華路687號"
         },
         "geometry":{
            "type":"Point",
            "coordinates":[
               120.2929170000,
               22.6748610000
            ]
         }
      },
      {
         "type":"Feature",
         "properties":{
            "name":"平鎮",
            "SiteEngName":"Pingzhen",
            "AreaName":"北部空品區",
            "County":"桃園市",
            "Township":null,
            "address":"桃園市平鎮區復興街55號"
         },
         "geometry":{
            "type":"Point",
            "coordinates":[
               121.2049810000,
               24.9542080000
            ]
         }
      },
      {
         "type":"Feature",
         "properties":{
            "name":"永和",
            "SiteEngName":"Yonghe",
            "AreaName":"北部空品區",
            "County":"新北市",
            "Township":null,
            "address":"新北市永和區永和路與光復路交口"
         },
         "geometry":{
            "type":"Point",
            "coordinates":[
               121.5163060000,
               25.0170000000
            ]
         }
      },
      {
         "type":"Feature",
         "properties":{
            "name":"安南",
            "SiteEngName":"Annan",
            "AreaName":"雲嘉南空品區",
            "County":"臺南市",
            "Township":null,
            "address":"臺南市安南區安和路3段193號"
         },
         "geometry":{
            "type":"Point",
            "coordinates":[
               120.2183330000,
               23.0483330000
            ]
         }
      },
      {
         "type":"Feature",
         "properties":{
            "name":"朴子",
            "SiteEngName":"Puzi",
            "AreaName":"雲嘉南空品區",
            "County":"嘉義縣",
            "Township":null,
            "address":"嘉義縣朴子市光復路34號"
         },
         "geometry":{
            "type":"Point",
            "coordinates":[
               120.2473500000,
               23.4653080000
            ]
         }
      },
      {
         "type":"Feature",
         "properties":{
            "name":"汐止",
            "SiteEngName":"Xizhi",
            "AreaName":"北部空品區",
            "County":"新北市",
            "Township":null,
            "address":"新北市汐止區樟樹一路137巷26號"
         },
         "geometry":{
            "type":"Point",
            "coordinates":[
               121.6408000000,
               25.0656690000
            ]
         }
      },
      {
         "type":"Feature",
         "properties":{
            "name":"竹山",
            "SiteEngName":"Zhushan",
            "AreaName":"中部空品區",
            "County":"南投縣",
            "Township":null,
            "address":"南投縣竹山鎮大明路666號"
         },
         "geometry":{
            "type":"Point",
            "coordinates":[
               120.6773060000,
               23.7563890000
            ]
         }
      },
      {
         "type":"Feature",
         "properties":{
            "name":"竹東",
            "SiteEngName":"Zhudong",
            "AreaName":"竹苗空品區",
            "County":"新竹縣",
            "Township":null,
            "address":"新竹縣竹東鎮榮樂里三民街70號"
         },
         "geometry":{
            "type":"Point",
            "coordinates":[
               121.0889030000,
               24.7406440000
            ]
         }
      },
      {
         "type":"Feature",
         "properties":{
            "name":"西屯",
            "SiteEngName":"Xitun",
            "AreaName":"中部空品區",
            "County":"臺中市",
            "Township":null,
            "address":"臺中市西屯區安和路1號"
         },
         "geometry":{
            "type":"Point",
            "coordinates":[
               120.6169170000,
               24.1621970000
            ]
         }
      },
      {
         "type":"Feature",
         "properties":{
            "name":"沙鹿",
            "SiteEngName":"Shalu",
            "AreaName":"中部空品區",
            "County":"臺中市",
            "Township":null,
            "address":"臺中市沙鹿區英才路150號"
         },
         "geometry":{
            "type":"Point",
            "coordinates":[
               120.5687940000,
               24.2256280000
            ]
         }
      },
      {
         "type":"Feature",
         "properties":{
            "name":"宜蘭",
            "SiteEngName":"Yilan",
            "AreaName":"宜蘭空品區",
            "County":"宜蘭縣",
            "Township":null,
            "address":"宜蘭縣宜蘭市復興路二段77號"
         },
         "geometry":{
            "type":"Point",
            "coordinates":[
               121.7463940000,
               24.7479170000
            ]
         }
      },
      {
         "type":"Feature",
         "properties":{
            "name":"忠明",
            "SiteEngName":"Zhongming",
            "AreaName":"中部空品區",
            "County":"臺中市",
            "Township":null,
            "address":"臺中市南屯區公益路2段296號"
         },
         "geometry":{
            "type":"Point",
            "coordinates":[
               120.6410920000,
               24.1519580000
            ]
         }
      },
      {
         "type":"Feature",
         "properties":{
            "name":"林口",
            "SiteEngName":"Linkou",
            "AreaName":"北部空品區",
            "County":"新北市",
            "Township":null,
            "address":"新北市林口區文化北路1段425號"
         },
         "geometry":{
            "type":"Point",
            "coordinates":[
               121.3657030000,
               25.0785700000
            ]
         }
      },
      {
         "type":"Feature",
         "properties":{
            "name":"林園",
            "SiteEngName":"Linyuan",
            "AreaName":"高屏空品區",
            "County":"高雄市",
            "Township":null,
            "address":"高雄市林園區北汕路58巷2號"
         },
         "geometry":{
            "type":"Point",
            "coordinates":[
               120.4117500000,
               22.4795000000
            ]
         }
      },
      {
         "type":"Feature",
         "properties":{
            "name":"板橋",
            "SiteEngName":"Banqiao",
            "AreaName":"北部空品區",
            "County":"新北市",
            "Township":null,
            "address":"新北市板橋區文化路1段25號"
         },
         "geometry":{
            "type":"Point",
            "coordinates":[
               121.4586670000,
               25.0129720000
            ]
         }
      },
      {
         "type":"Feature",
         "properties":{
            "name":"松山",
            "SiteEngName":"Songshan",
            "AreaName":"北部空品區",
            "County":"臺北市",
            "Township":null,
            "address":"臺北市松山區八德路4段746號"
         },
         "geometry":{
            "type":"Point",
            "coordinates":[
               121.5786110000,
               25.0500000000
            ]
         }
      },
      {
         "type":"Feature",
         "properties":{
            "name":"花蓮",
            "SiteEngName":"Hualien",
            "AreaName":"花東空品區",
            "County":"花蓮縣",
            "Township":null,
            "address":"花蓮縣花蓮市中正路210號"
         },
         "geometry":{
            "type":"Point",
            "coordinates":[
               121.5997690000,
               23.9713060000
            ]
         }
      },
      {
         "type":"Feature",
         "properties":{
            "name":"金門",
            "SiteEngName":"Kinmen",
            "AreaName":"其他",
            "County":"金門縣",
            "Township":null,
            "address":"金門縣金城鎮民權路32號"
         },
         "geometry":{
            "type":"Point",
            "coordinates":[
               118.3122560000,
               24.4321330000
            ]
         }
      },
      {
         "type":"Feature",
         "properties":{
            "name":"前金",
            "SiteEngName":"Qianjin",
            "AreaName":"高屏空品區",
            "County":"高雄市",
            "Township":null,
            "address":"高雄市前金區河南二路196號"
         },
         "geometry":{
            "type":"Point",
            "coordinates":[
               120.2880860000,
               22.6325670000
            ]
         }
      },
      {
         "type":"Feature",
         "properties":{
            "name":"前鎮",
            "SiteEngName":"Qianzhen",
            "AreaName":"高屏空品區",
            "County":"高雄市",
            "Township":null,
            "address":"高雄市前鎮區中山三路43號"
         },
         "geometry":{
            "type":"Point",
            "coordinates":[
               120.3075640000,
               22.6053860000
            ]
         }
      },
      {
         "type":"Feature",
         "properties":{
            "name":"南投",
            "SiteEngName":"Nantou",
            "AreaName":"中部空品區",
            "County":"南投縣",
            "Township":null,
            "address":"南投縣南投市南陽路269號"
         },
         "geometry":{
            "type":"Point",
            "coordinates":[
               120.6853060000,
               23.9130000000
            ]
         }
      },
      {
         "type":"Feature",
         "properties":{
            "name":"屏東",
            "SiteEngName":"Pingtung",
            "AreaName":"高屏空品區",
            "County":"屏東縣",
            "Township":null,
            "address":"屏東縣屏東市蘇州街75號"
         },
         "geometry":{
            "type":"Point",
            "coordinates":[
               120.4880330000,
               22.6730810000
            ]
         }
      },
      {
         "type":"Feature",
         "properties":{
            "name":"恆春",
            "SiteEngName":"Hengchun",
            "AreaName":"高屏空品區",
            "County":"屏東縣",
            "Township":null,
            "address":"屏東縣恆春鎮公園路44號"
         },
         "geometry":{
            "type":"Point",
            "coordinates":[
               120.7889280000,
               21.9580690000
            ]
         }
      },
      {
         "type":"Feature",
         "properties":{
            "name":"美濃",
            "SiteEngName":"Meinong",
            "AreaName":"高屏空品區",
            "County":"高雄市",
            "Township":null,
            "address":"高雄市美濃區忠孝路19號"
         },
         "geometry":{
            "type":"Point",
            "coordinates":[
               120.5305420000,
               22.8835830000
            ]
         }
      },
      {
         "type":"Feature",
         "properties":{
            "name":"苗栗",
            "SiteEngName":"Miaoli",
            "AreaName":"竹苗空品區",
            "County":"苗栗縣",
            "Township":null,
            "address":"苗栗縣苗栗市縣府路100號"
         },
         "geometry":{
            "type":"Point",
            "coordinates":[
               120.8202000000,
               24.5652690000
            ]
         }
      },
      {
         "type":"Feature",
         "properties":{
            "name":"埔里",
            "SiteEngName":"Puli",
            "AreaName":"中部空品區",
            "County":"南投縣",
            "Township":null,
            "address":"南投縣埔里鎮西安路1段193號"
         },
         "geometry":{
            "type":"Point",
            "coordinates":[
               120.9679030000,
               23.9688420000
            ]
         }
      },
      {
         "type":"Feature",
         "properties":{
            "name":"桃園",
            "SiteEngName":"Taoyuan",
            "AreaName":"北部空品區",
            "County":"桃園市",
            "Township":null,
            "address":"桃園市桃園區莒光街15號"
         },
         "geometry":{
            "type":"Point",
            "coordinates":[
               121.3044170000,
               24.9956670000
            ]
         }
      },
      {
         "type":"Feature",
         "properties":{
            "name":"馬公",
            "SiteEngName":"Magong",
            "AreaName":"其他",
            "County":"澎湖縣",
            "Township":null,
            "address":"澎湖縣馬公市中正路115號"
         },
         "geometry":{
            "type":"Point",
            "coordinates":[
               119.5661580000,
               23.5690310000
            ]
         }
      },
      {
         "type":"Feature",
         "properties":{
            "name":"馬祖",
            "SiteEngName":"Matsu",
            "AreaName":"其他",
            "County":"連江縣",
            "Township":null,
            "address":"連江縣南竿鄉介壽村156-10號"
         },
         "geometry":{
            "type":"Point",
            "coordinates":[
               119.9525000000,
               26.1536110000
            ]
         }
      },
      {
         "type":"Feature",
         "properties":{
            "name":"基隆",
            "SiteEngName":"Keelung",
            "AreaName":"北部空品區",
            "County":"基隆市",
            "Township":null,
            "address":"基隆市信義區東信路324號"
         },
         "geometry":{
            "type":"Point",
            "coordinates":[
               121.7600560000,
               25.1291670000
            ]
         }
      },
      {
         "type":"Feature",
         "properties":{
            "name":"崙背",
            "SiteEngName":"Lunbei",
            "AreaName":"雲嘉南空品區",
            "County":"雲林縣",
            "Township":null,
            "address":"雲林縣崙背鄉大成路91號"
         },
         "geometry":{
            "type":"Point",
            "coordinates":[
               120.3487420000,
               23.7575470000
            ]
         }
      },
      {
         "type":"Feature",
         "properties":{
            "name":"淡水",
            "SiteEngName":"Tamsui",
            "AreaName":"北部空品區",
            "County":"新北市",
            "Township":null,
            "address":"新北市淡水區中正東路42巷6號"
         },
         "geometry":{
            "type":"Point",
            "coordinates":[
               121.4492390000,
               25.1645000000
            ]
         }
      },
      {
         "type":"Feature",
         "properties":{
            "name":"麥寮",
            "SiteEngName":"Mailiao",
            "AreaName":"雲嘉南空品區",
            "County":"雲林縣",
            "Township":null,
            "address":"雲林縣麥寮鄉中興路115號"
         },
         "geometry":{
            "type":"Point",
            "coordinates":[
               120.2518250000,
               23.7535060000
            ]
         }
      },
      {
         "type":"Feature",
         "properties":{
            "name":"復興",
            "SiteEngName":"Fuxing",
            "AreaName":"高屏空品區",
            "County":"高雄市",
            "Township":null,
            "address":"高雄市前鎮區民權二路331號"
         },
         "geometry":{
            "type":"Point",
            "coordinates":[
               120.3120170000,
               22.6087110000
            ]
         }
      },
      {
         "type":"Feature",
         "properties":{
            "name":"湖口",
            "SiteEngName":"Hukou",
            "AreaName":"竹苗空品區",
            "County":"新竹縣",
            "Township":null,
            "address":"新竹縣湖口鄉成功路360號"
         },
         "geometry":{
            "type":"Point",
            "coordinates":[
               121.0386530000,
               24.9001420000
            ]
         }
      },
      {
         "type":"Feature",
         "properties":{
            "name":"善化",
            "SiteEngName":"Shanhua",
            "AreaName":"雲嘉南空品區",
            "County":"臺南市",
            "Township":null,
            "address":"臺南市善化區益民寮60號"
         },
         "geometry":{
            "type":"Point",
            "coordinates":[
               120.2971420000,
               23.1150970000
            ]
         }
      },
      {
         "type":"Feature",
         "properties":{
            "name":"菜寮",
            "SiteEngName":"Cailiao",
            "AreaName":"北部空品區",
            "County":"新北市",
            "Township":null,
            "address":"新北市三重區中正北路163號"
         },
         "geometry":{
            "type":"Point",
            "coordinates":[
               121.4810280000,
               25.0689500000
            ]
         }
      },
      {
         "type":"Feature",
         "properties":{
            "name":"陽明",
            "SiteEngName":"Yangming",
            "AreaName":"北部空品區",
            "County":"臺北市",
            "Township":null,
            "address":"臺北市北投區竹子湖路111號"
         },
         "geometry":{
            "type":"Point",
            "coordinates":[
               121.5295830000,
               25.1827220000
            ]
         }
      },
      {
         "type":"Feature",
         "properties":{
            "name":"新竹",
            "SiteEngName":"Hsinchu",
            "AreaName":"竹苗空品區",
            "County":"新竹市",
            "Township":null,
            "address":"新竹市東區民族路33號"
         },
         "geometry":{
            "type":"Point",
            "coordinates":[
               120.9720750000,
               24.8056190000
            ]
         }
      },
      {
         "type":"Feature",
         "properties":{
            "name":"新店",
            "SiteEngName":"Xindian",
            "AreaName":"北部空品區",
            "County":"新北市",
            "Township":null,
            "address":"新北市新店區民族路108號"
         },
         "geometry":{
            "type":"Point",
            "coordinates":[
               121.5377780000,
               24.9772220000
            ]
         }
      },
      {
         "type":"Feature",
         "properties":{
            "name":"新莊",
            "SiteEngName":"Xinzhuang",
            "AreaName":"北部空品區",
            "County":"新北市",
            "Township":null,
            "address":"新北市新莊區中正路510號"
         },
         "geometry":{
            "type":"Point",
            "coordinates":[
               121.4325000000,
               25.0379720000
            ]
         }
      },
      {
         "type":"Feature",
         "properties":{
            "name":"新港",
            "SiteEngName":"Xingang",
            "AreaName":"雲嘉南空品區",
            "County":"嘉義縣",
            "Township":null,
            "address":"嘉義縣新港鄉登雲路105號"
         },
         "geometry":{
            "type":"Point",
            "coordinates":[
               120.3455310000,
               23.5548390000
            ]
         }
      },
      {
         "type":"Feature",
         "properties":{
            "name":"新營",
            "SiteEngName":"Xinying",
            "AreaName":"雲嘉南空品區",
            "County":"臺南市",
            "Township":null,
            "address":"臺南市新營區中正路4號"
         },
         "geometry":{
            "type":"Point",
            "coordinates":[
               120.3172500000,
               23.3056330000
            ]
         }
      },
      {
         "type":"Feature",
         "properties":{
            "name":"楠梓",
            "SiteEngName":"Nanzi",
            "AreaName":"高屏空品區",
            "County":"高雄市",
            "Township":null,
            "address":"高雄市楠梓區楠梓路262號"
         },
         "geometry":{
            "type":"Point",
            "coordinates":[
               120.3282890000,
               22.7336670000
            ]
         }
      },
      {
         "type":"Feature",
         "properties":{
            "name":"萬里",
            "SiteEngName":"Wanli",
            "AreaName":"北部空品區",
            "County":"新北市",
            "Township":null,
            "address":"新北市萬里區瑪鋉路221號"
         },
         "geometry":{
            "type":"Point",
            "coordinates":[
               121.6898810000,
               25.1796670000
            ]
         }
      },
      {
         "type":"Feature",
         "properties":{
            "name":"萬華",
            "SiteEngName":"Wanhua",
            "AreaName":"北部空品區",
            "County":"臺北市",
            "Township":null,
            "address":"臺北市萬華區中華路1段66號"
         },
         "geometry":{
            "type":"Point",
            "coordinates":[
               121.5079720000,
               25.0465030000
            ]
         }
      },
      {
         "type":"Feature",
         "properties":{
            "name":"嘉義",
            "SiteEngName":"Chiayi",
            "AreaName":"雲嘉南空品區",
            "County":"嘉義市",
            "Township":null,
            "address":"嘉義市西區新民路580號"
         },
         "geometry":{
            "type":"Point",
            "coordinates":[
               120.4408330000,
               23.462778000
            ]
         }
      },
      {
         "type":"Feature",
         "properties":{
            "name":"彰化",
            "SiteEngName":"Changhua",
            "AreaName":"中部空品區",
            "County":"彰化縣",
            "Township":null,
            "address":"彰化縣彰化市文心街55號",
            "AQI": 10,
            "PM25": 15
         },
         "geometry":{
            "type":"Point",
            "coordinates":[
               120.5415190000,
               24.0660000000
            ]
         }
      },
      {
         "type":"Feature",
         "properties":{
            "name":"鳳山",
            "SiteEngName":"Fengshan",
            "AreaName":"高屏空品區",
            "County":"高雄市",
            "Township":null,
            "address":"高雄市鳳山區曹公路6號"
         },
         "geometry":{
            "type":"Point",
            "coordinates":[
               120.3580830000,
               22.6273920000
            ]
         }
      },
      {
         "type":"Feature",
         "properties":{
            "name":"潮州",
            "SiteEngName":"Chaozhou",
            "AreaName":"高屏空品區",
            "County":"屏東縣",
            "Township":null,
            "address":"屏東縣潮州鎮復興路66號"
         },
         "geometry":{
            "type":"Point",
            "coordinates":[
               120.5611750000,
               22.5231080000
            ]
         }
      },
      {
         "type":"Feature",
         "properties":{
            "name":"線西",
            "SiteEngName":"Xianxi",
            "AreaName":"中部空品區",
            "County":"彰化縣",
            "Township":null,
            "address":"彰化縣線西鄉中央路2段145號"
         },
         "geometry":{
            "type":"Point",
            "coordinates":[
               120.4690610000,
               24.1316720000
            ]
         }
      },
      {
         "type":"Feature",
         "properties":{
            "name":"橋頭",
            "SiteEngName":"Qiaotou",
            "AreaName":"高屏空品區",
            "County":"高雄市",
            "Township":null,
            "address":"高雄市橋頭區隆豐北路1號"
         },
         "geometry":{
            "type":"Point",
            "coordinates":[
               120.3056890000,
               22.7575060000
            ]
         }
      },
      {
         "type":"Feature",
         "properties":{
            "name":"頭份",
            "SiteEngName":"Toufen",
            "AreaName":"竹苗空品區",
            "County":"苗栗縣",
            "Township":null,
            "address":"苗栗縣頭份市文化街20號"
         },
         "geometry":{
            "type":"Point",
            "coordinates":[
               120.8985720000,
               24.6969690000
            ]
         }
      },
      {
         "type":"Feature",
         "properties":{
            "name":"龍潭",
            "SiteEngName":"Longtan",
            "AreaName":"北部空品區",
            "County":"桃園市",
            "Township":null,
            "address":"桃園市龍潭區中正路210號"
         },
         "geometry":{
            "type":"Point",
            "coordinates":[
               121.2163500000,
               24.8638690000
            ]
         }
      },
      {
         "type":"Feature",
         "properties":{
            "name":"豐原",
            "SiteEngName":"Fengyuan",
            "AreaName":"中部空品區",
            "County":"臺中市",
            "Township":null,
            "address":"臺中市豐原區水源路150號"
         },
         "geometry":{
            "type":"Point",
            "coordinates":[
               120.7417110000,
               24.2565860000
            ]
         }
      },
      {
         "type":"Feature",
         "properties":{
            "name":"關山",
            "SiteEngName":"Guanshan",
            "AreaName":"花東空品區",
            "County":"臺東縣",
            "Township":null,
            "address":"臺東縣關山鎮自強路66號"
         },
         "geometry":{
            "type":"Point",
            "coordinates":[
               121.5295830000,
               23.0450830000
            ]
         }
      },
      {
         "type":"Feature",
         "properties":{
            "name":"觀音",
            "SiteEngName":"Guanyin",
            "AreaName":"北部空品區",
            "County":"桃園市",
            "Township":null,
            "address":"桃園市觀音區文化路2號"
         },
         "geometry":{
            "type":"Point",
            "coordinates":[
               121.5295830000,
               25.0355030000
            ]
         }
      },
      {
         "type":"Feature",
         "properties":{
            "name":"臺南",
            "SiteEngName":"Tainan",
            "AreaName":"雲嘉南空品區",
            "County":"臺南市",
            "Township":null,
            "address":"臺南市中西區南寧街45號"
         },
         "geometry":{
            "type":"Point",
            "coordinates":[
               120.2026170000,
               22.9845810000
            ]
         }
      },
      {
         "type":"Feature",
         "properties":{
            "name":"臺東",
            "SiteEngName":"Taitung",
            "AreaName":"花東空品區",
            "County":"臺東縣",
            "Township":null,
            "address":"臺東縣臺東市中山路276號"
         },
         "geometry":{
            "type":"Point",
            "coordinates":[
               121.1504500000,
               22.7553580000
            ]
         }
      },
      {
         "type":"Feature",
         "properties":{
            "name":"臺西",
            "SiteEngName":"Taixi",
            "AreaName":"雲嘉南空品區",
            "County":"雲林縣",
            "Township":null,
            "address":"雲林縣臺西鄉五港路505號"
         },
         "geometry":{
            "type":"Point",
            "coordinates":[
               120.2028420000,
               23.7175330000
            ]
         }
      },
      {
         "type":"Feature",
         "properties":{
            "name":"富貴角",
            "SiteEngName":"FugueiCape",
            "AreaName":"北部空品區",
            "County":"新北市",
            "Township":null,
            "address":"新北市石門區富貴角海邊"
         },
         "geometry":{
            "type":"Point",
            "coordinates":[
               121.5379750000,
               25.2974360000
            ]
         }
      }
   ]
}
